% program   : RTKPOST ver.2.4.2
% inp file  : C:\Users\dario\polybox\00_Masterthesis\3_Modules\359_Tests\GPS\20190326_Test_ETHZ\Receiver_2\REC2ANT1.obs
% inp file  : C:\Users\dario\polybox\00_Masterthesis\3_Modules\359_Tests\GPS\20190326_Test_ETHZ\Base\Order_1200_1800\ETH2085M.obs
% inp file  : C:\Users\dario\polybox\00_Masterthesis\3_Modules\359_Tests\GPS\20190326_Test_ETHZ\Receiver_2\REC2ANT1.nav
% obs start : 2019/03/26 14:34:19.0 GPST (week2046 225259.0s)
% obs end   : 2019/03/26 14:37:18.0 GPST (week2046 225438.0s)
% pos mode  : kinematic
% freqs     : L1
% solution  : forward
% elev mask : 20.0 deg
% dynamics  : on
% tidecorr  : off
% ionos opt : sbas
% tropo opt : saastamoinen
% ephemeris : broadcast
% navi sys  : gps glonass galileo qzss sbas
% amb res   : fix and hold
% amb glo   : on
% val thres : 3.0
% antenna1  :                       ( 0.0000  0.0000  0.0000)
% antenna2  :                       ( 0.0000  0.0000  0.0000)
% ref pos   : 47.407178467    8.510609623   594.8508
%
% (lat/lon/height=WGS84/ellipsoidal,Q=1:fix,2:float,3:sbas,4:dgps,5:single,6:ppp,ns=# of satellites)
%  GPST                  latitude(deg) longitude(deg)  height(m)   Q  ns   sdn(m)   sde(m)   sdu(m)  sdne(m)  sdeu(m)  sdun(m) age(s)  ratio
2019/03/26 14:34:19.000   47.377216018    8.547011200   518.0642   2   7   1.0989   0.5580   1.7135  -0.4405  -0.6138   0.8203   0.99    1.0
2019/03/26 14:34:20.000   47.377215039    8.547013188   517.5079   2   7   0.7809   0.3966   1.2171  -0.3132  -0.4357   0.5829   0.99    1.1
2019/03/26 14:34:21.000   47.377213552    8.547011911   517.3478   2   7   0.6386   0.3244   0.9950  -0.2561  -0.3561   0.4764   0.99    1.6
2019/03/26 14:34:22.000   47.377213206    8.547011663   517.5146   2   7   0.5534   0.2811   0.8619  -0.2219  -0.3084   0.4124   0.99    1.7
2019/03/26 14:34:23.000   47.377212924    8.547012032   517.3963   2   7   0.4950   0.2516   0.7708  -0.1984  -0.2757   0.3685   0.99    1.8
2019/03/26 14:34:24.000   47.377212376    8.547012611   517.3592   2   7   0.4518   0.2297   0.7033  -0.1810  -0.2515   0.3359   0.99    1.7
2019/03/26 14:34:25.000   47.377212132    8.547013098   517.4819   2   7   0.4182   0.2126   0.6507  -0.1674  -0.2326   0.3104   0.99    1.4
2019/03/26 14:34:26.000   47.377211812    8.547013441   517.4809   2   7   0.3910   0.1989   0.6082  -0.1564  -0.2172   0.2897   0.99    1.5
2019/03/26 14:34:27.000   47.377211943    8.547013690   517.5529   2   7   0.3684   0.1875   0.5728  -0.1473  -0.2045   0.2724   0.99    1.3
2019/03/26 14:34:28.000   47.377211789    8.547013882   517.5550   2   7   0.3492   0.1778   0.5428  -0.1395  -0.1937   0.2576   0.99    1.2
2019/03/26 14:34:29.000   47.377211704    8.547014547   517.5016   2   7   0.3326   0.1695   0.5168  -0.1327  -0.1843   0.2448   0.99    1.1
2019/03/26 14:34:30.000   47.377211587    8.547015215   517.4536   2   7   0.3181   0.1622   0.4941  -0.1268  -0.1761   0.2334   0.99    1.1
2019/03/26 14:34:31.000   47.377211519    8.547015372   517.4488   2   7   0.3053   0.1558   0.4740  -0.1215  -0.1688   0.2233   0.99    1.1
2019/03/26 14:34:32.000   47.377211518    8.547015569   517.4461   2   7   0.2938   0.1500   0.4560  -0.1168  -0.1622   0.2142   0.99    1.1
2019/03/26 14:34:33.000   47.377211220    8.547015934   517.4677   2   7   0.2834   0.1449   0.4397  -0.1125  -0.1563   0.2060   0.99    1.1
2019/03/26 14:34:34.000   47.377211064    8.547016088   517.5355   2   7   0.2740   0.1402   0.4249  -0.1086  -0.1509   0.1984   0.99    1.0
2019/03/26 14:34:35.000   47.377210860    8.547016282   517.6036   2   7   0.2654   0.1359   0.4114  -0.1050  -0.1459   0.1914   0.99    1.1
2019/03/26 14:34:36.000   47.377210284    8.547016583   517.6306   2   7   0.2575   0.1320   0.3989  -0.1016  -0.1414   0.1849   0.99    1.1
2019/03/26 14:34:37.000   47.377209680    8.547016744   517.6736   2   7   0.2502   0.1284   0.3874  -0.0986  -0.1371   0.1788   0.99    1.0
2019/03/26 14:34:38.000   47.377209067    8.547016908   517.7176   2   7   0.2434   0.1251   0.3767  -0.0957  -0.1332   0.1732   0.99    1.1
2019/03/26 14:34:39.000   47.377208449    8.547017286   517.7155   2   7   0.2371   0.1220   0.3667  -0.0930  -0.1295   0.1678   0.99    1.2
2019/03/26 14:34:40.000   47.377207736    8.547017663   517.7627   2   7   0.2311   0.1191   0.3573  -0.0905  -0.1260   0.1628   0.99    1.4
2019/03/26 14:34:41.000   47.377207157    8.547018270   517.7498   2   7   0.2256   0.1163   0.3485  -0.0881  -0.1227   0.1580   0.99    1.7
2019/03/26 14:34:42.000   47.377206424    8.547018751   517.7349   2   7   0.2203   0.1138   0.3402  -0.0858  -0.1196   0.1534   0.99    1.9
2019/03/26 14:34:43.000   47.377205612    8.547019318   517.7286   2   7   0.2154   0.1114   0.3324  -0.0837  -0.1167   0.1491   0.99    2.1
2019/03/26 14:34:44.000   47.377205023    8.547019589   517.7408   2   7   0.2107   0.1091   0.3250  -0.0816  -0.1139   0.1449   0.99    2.2
2019/03/26 14:34:45.000   47.377204341    8.547019835   517.7647   2   7   0.2062   0.1070   0.3179  -0.0797  -0.1113   0.1409   0.99    2.3
2019/03/26 14:34:46.000   47.377203768    8.547019966   517.8126   2   7   0.2020   0.1050   0.3112  -0.0778  -0.1088   0.1371   0.99    2.3
2019/03/26 14:34:47.000   47.377203227    8.547020241   517.8610   2   7   0.1980   0.1030   0.3048  -0.0760  -0.1063   0.1334   0.99    2.4
2019/03/26 14:34:48.000   47.377202613    8.547020524   517.8872   2   7   0.1942   0.1012   0.2987  -0.0743  -0.1040   0.1298   0.99    2.5
2019/03/26 14:34:49.000   47.377202218    8.547020683   517.9423   2   7   0.1905   0.0995   0.2929  -0.0727  -0.1018   0.1264   0.99    2.5
2019/03/26 14:34:50.000   47.377201799    8.547020842   517.9682   2   7   0.1870   0.0978   0.2873  -0.0711  -0.0997   0.1230   0.99    2.5
2019/03/26 14:34:51.000   47.377201393    8.547021034   517.9836   2   7   0.1836   0.0962   0.2819  -0.0696  -0.0976   0.1198   0.99    2.4
2019/03/26 14:34:52.000   47.377200996    8.547021084   517.9971   2   7   0.1804   0.0947   0.2768  -0.0681  -0.0956   0.1167   0.99    2.4
2019/03/26 14:34:53.000   47.377200815    8.547021018   518.0392   2   7   0.1772   0.0932   0.2718  -0.0667  -0.0937   0.1136   0.99    2.2
2019/03/26 14:34:54.000   47.377200585    8.547021008   518.0507   2   7   0.1743   0.0918   0.2670  -0.0653  -0.0919   0.1107   0.99    2.1
2019/03/26 14:34:55.000   47.377200413    8.547020962   518.0397   2   7   0.1714   0.0905   0.2624  -0.0640  -0.0901   0.1078   0.99    2.1
2019/03/26 14:34:56.000   47.377200368    8.547020970   518.0241   2   7   0.1686   0.0892   0.2580  -0.0627  -0.0884   0.1049   0.99    2.1
2019/03/26 14:34:57.000   47.377200376    8.547020912   517.9972   2   7   0.1659   0.0879   0.2537  -0.0615  -0.0867   0.1022   0.99    2.0
2019/03/26 14:34:58.000   47.377200695    8.547020730   517.9629   2   7   0.1633   0.0867   0.2495  -0.0603  -0.0851   0.0995   0.99    2.0
2019/03/26 14:34:59.000   47.377200972    8.547020571   517.9550   2   7   0.1608   0.0856   0.2455  -0.0591  -0.0836   0.0969   0.99    2.0
2019/03/26 14:35:00.000   47.377201148    8.547020437   517.9419   2   7   0.1584   0.0844   0.2417  -0.0579  -0.0820   0.0943   0.99    1.9
2019/03/26 14:35:01.000   47.377201321    8.547020339   517.9257   2   7   0.1560   0.0834   0.2379  -0.0568  -0.0806   0.0918   0.99    1.9
2019/03/26 14:35:02.000   47.377201588    8.547020193   517.9222   2   7   0.1538   0.0823   0.2343  -0.0557  -0.0791   0.0893   0.99    1.9
2019/03/26 14:35:03.000   47.377201792    8.547019930   517.9244   2   7   0.1515   0.0813   0.2307  -0.0547  -0.0777   0.0869   0.99    1.8
2019/03/26 14:35:04.000   47.377202047    8.547019854   517.8992   2   7   0.1494   0.0803   0.2273  -0.0537  -0.0764   0.0845   0.99    1.8
2019/03/26 14:35:05.000   47.377202187    8.547019752   517.8836   2   7   0.1473   0.0794   0.2240  -0.0527  -0.0751   0.0822   0.99    1.8
2019/03/26 14:35:06.000   47.377202358    8.547019830   517.8166   2   7   0.1453   0.0784   0.2207  -0.0517  -0.0738   0.0799   0.99    1.8
2019/03/26 14:35:07.000   47.377202575    8.547019827   517.7902   2   7   0.1434   0.0775   0.2176  -0.0507  -0.0725   0.0776   0.99    1.9
2019/03/26 14:35:08.000   47.377202793    8.547019788   517.7571   2   7   0.1414   0.0767   0.2145  -0.0498  -0.0713   0.0754   0.99    1.8
2019/03/26 14:35:09.000   47.377203052    8.547019763   517.7402   2   7   0.1396   0.0758   0.2115  -0.0489  -0.0701   0.0732   0.99    1.9
2019/03/26 14:35:10.000   47.377203267    8.547019659   517.7323   2   7   0.1378   0.0750   0.2086  -0.0480  -0.0690   0.0710   0.99    1.9
2019/03/26 14:35:11.000   47.377203564    8.547019585   517.7187   2   7   0.1360   0.0742   0.2058  -0.0471  -0.0679   0.0689   0.99    1.8
2019/03/26 14:35:12.000   47.377203690    8.547019549   517.7008   2   7   0.1343   0.0735   0.2031  -0.0463  -0.0668   0.0668   0.99    1.8
2019/03/26 14:35:13.000   47.377203899    8.547019541   517.6998   2   7   0.1327   0.0727   0.2004  -0.0455  -0.0657   0.0647   0.99    1.9
2019/03/26 14:35:14.000   47.377204053    8.547019586   517.6936   2   7   0.1310   0.0720   0.1978  -0.0446  -0.0646   0.0626   0.99    1.9
2019/03/26 14:35:15.000   47.377204175    8.547019498   517.7040   2   7   0.1295   0.0713   0.1953  -0.0438  -0.0636   0.0606   0.99    1.9
2019/03/26 14:35:16.000   47.377204224    8.547019518   517.6869   2   7   0.1279   0.0706   0.1928  -0.0431  -0.0626   0.0585   0.99    1.9
2019/03/26 14:35:17.000   47.377204350    8.547019448   517.7052   2   7   0.1264   0.0699   0.1904  -0.0423  -0.0616   0.0565   0.99    1.9
2019/03/26 14:35:18.000   47.377204353    8.547019429   517.7192   2   7   0.1249   0.0692   0.1880  -0.0416  -0.0607   0.0545   0.99    2.0
2019/03/26 14:35:19.000   47.377204312    8.547019447   517.7426   2   7   0.1235   0.0686   0.1857  -0.0408  -0.0597   0.0525   0.99    2.0
2019/03/26 14:35:20.000   47.377204374    8.547019451   517.7757   2   7   0.1221   0.0679   0.1835  -0.0401  -0.0588   0.0505   0.99    2.0
2019/03/26 14:35:21.000   47.377204327    8.547019442   517.8014   2   7   0.1207   0.0673   0.1813  -0.0394  -0.0579   0.0485   0.99    2.1
2019/03/26 14:35:22.000   47.377204254    8.547019533   517.8315   2   7   0.1194   0.0667   0.1791  -0.0387  -0.0571   0.0465   0.99    2.1
2019/03/26 14:35:23.000   47.377204263    8.547019596   517.8584   2   7   0.1181   0.0662   0.1770  -0.0381  -0.0562   0.0446   0.99    2.2
2019/03/26 14:35:24.000   47.377204254    8.547019713   517.8836   2   7   0.1168   0.0656   0.1750  -0.0374  -0.0554   0.0426   0.99    2.3
2019/03/26 14:35:25.000   47.377204179    8.547019738   517.9081   2   7   0.1156   0.0650   0.1730  -0.0368  -0.0546   0.0405   0.99    2.4
2019/03/26 14:35:26.000   47.377204072    8.547019772   517.9332   2   7   0.1144   0.0645   0.1710  -0.0361  -0.0538   0.0385   0.99    2.4
2019/03/26 14:35:27.000   47.377203997    8.547019738   517.9767   2   7   0.1132   0.0639   0.1691  -0.0355  -0.0530   0.0365   0.99    2.4
2019/03/26 14:35:28.000   47.377203907    8.547019763   518.0077   2   7   0.1120   0.0634   0.1672  -0.0349  -0.0522   0.0344   0.99    2.5
2019/03/26 14:35:29.000   47.377203858    8.547019773   518.0410   2   7   0.1109   0.0629   0.1654  -0.0343  -0.0514   0.0323   0.99    2.5
2019/03/26 14:35:30.000   47.377203759    8.547019882   518.0616   2   7   0.1098   0.0624   0.1636  -0.0337  -0.0507   0.0301   0.99    2.6
2019/03/26 14:35:31.000   47.377203736    8.547019955   518.0722   2   7   0.1087   0.0619   0.1619  -0.0331  -0.0500   0.0278   0.99    2.7
2019/03/26 14:35:32.000   47.377203720    8.547020052   518.1027   2   7   0.1076   0.0614   0.1602  -0.0325  -0.0493   0.0255   0.99    2.8
2019/03/26 14:35:33.000   47.377203782    8.547020127   518.1216   2   7   0.1066   0.0610   0.1585  -0.0320  -0.0486   0.0230   0.99    2.9
2019/03/26 14:35:34.000   47.377204377    8.547022806   518.1467   1   7   0.0114   0.0057   0.0176  -0.0046  -0.0063   0.0085   0.99    3.0
2019/03/26 14:35:35.000   47.377204372    8.547022810   518.1477   1   7   0.0114   0.0057   0.0176  -0.0046  -0.0063   0.0085   0.99    3.1
2019/03/26 14:35:36.000   47.377204421    8.547022771   518.1559   1   7   0.0114   0.0057   0.0176  -0.0046  -0.0063   0.0085   0.99    3.2
2019/03/26 14:35:37.000   47.377204373    8.547022809   518.1551   1   7   0.0114   0.0057   0.0176  -0.0046  -0.0063   0.0085   0.99    3.2
2019/03/26 14:35:38.000   47.377204393    8.547022785   518.1557   1   7   0.0114   0.0057   0.0176  -0.0046  -0.0063   0.0085   0.99    3.3
2019/03/26 14:35:39.000   47.377204381    8.547022766   518.1521   1   7   0.0114   0.0057   0.0176  -0.0046  -0.0063   0.0085   0.99    3.4
2019/03/26 14:35:40.000   47.377204387    8.547022794   518.1504   1   7   0.0114   0.0057   0.0176  -0.0046  -0.0063   0.0085   0.99    3.4
2019/03/26 14:35:41.000   47.377204400    8.547022778   518.1507   1   7   0.0114   0.0057   0.0176  -0.0046  -0.0063   0.0085   0.99    3.5
2019/03/26 14:35:42.000   47.377204401    8.547022786   518.1567   1   7   0.0114   0.0057   0.0176  -0.0046  -0.0063   0.0085   0.99    3.5
2019/03/26 14:35:43.000   47.377204369    8.547022768   518.1537   1   7   0.0114   0.0057   0.0176  -0.0046  -0.0063   0.0085   0.99    3.5
2019/03/26 14:35:44.000   47.377204392    8.547022768   518.1590   1   7   0.0114   0.0057   0.0176  -0.0046  -0.0063   0.0085   0.99   72.8
2019/03/26 14:35:45.000   47.377204436    8.547022758   518.1529   1   7   0.0114   0.0057   0.0176  -0.0046  -0.0063   0.0085   0.99  132.4
2019/03/26 14:35:46.000   47.377204384    8.547022785   518.1541   1   7   0.0114   0.0057   0.0176  -0.0046  -0.0063   0.0085   0.99  192.0
2019/03/26 14:35:47.000   47.377204359    8.547022812   518.1570   1   7   0.0114   0.0057   0.0176  -0.0046  -0.0063   0.0085   0.99  248.9
2019/03/26 14:35:48.000   47.377204402    8.547022770   518.1586   1   7   0.0114   0.0057   0.0176  -0.0046  -0.0063   0.0085   0.99  300.2
2019/03/26 14:35:49.000   47.377204370    8.547022802   518.1460   1   7   0.0114   0.0057   0.0176  -0.0046  -0.0063   0.0085   0.99  341.8
2019/03/26 14:35:50.000   47.377204390    8.547022754   518.1575   1   7   0.0114   0.0057   0.0176  -0.0046  -0.0063   0.0085   0.99  379.3
2019/03/26 14:35:51.000   47.377204366    8.547022779   518.1544   1   7   0.0114   0.0057   0.0176  -0.0046  -0.0063   0.0085   0.99  415.0
2019/03/26 14:35:52.000   47.377204360    8.547022781   518.1529   1   7   0.0114   0.0057   0.0176  -0.0046  -0.0063   0.0085   0.99  456.1
2019/03/26 14:35:53.000   47.377204374    8.547022788   518.1572   1   7   0.0114   0.0057   0.0176  -0.0046  -0.0063   0.0085   0.99  490.3
2019/03/26 14:35:54.000   47.377204337    8.547022802   518.1474   1   7   0.0114   0.0057   0.0176  -0.0046  -0.0063   0.0085   0.99  515.8
2019/03/26 14:35:55.000   47.377204364    8.547022824   518.1565   1   7   0.0114   0.0057   0.0176  -0.0046  -0.0063   0.0085   0.99  538.9
2019/03/26 14:35:56.000   47.377204342    8.547022798   518.1457   1   7   0.0114   0.0057   0.0176  -0.0046  -0.0063   0.0085   0.99  564.1
2019/03/26 14:35:57.000   47.377204371    8.547022811   518.1558   1   7   0.0114   0.0057   0.0176  -0.0046  -0.0063   0.0085   0.99  585.9
2019/03/26 14:35:58.000   47.377204386    8.547022756   518.1581   1   7   0.0114   0.0057   0.0176  -0.0046  -0.0063   0.0085   0.99  602.7
2019/03/26 14:35:59.000   47.377204322    8.547022783   518.1626   1   7   0.0114   0.0057   0.0176  -0.0046  -0.0063   0.0085   0.99  612.7
2019/03/26 14:36:00.000   47.377204395    8.547022774   518.1559   1   7   0.0115   0.0057   0.0176  -0.0046  -0.0063   0.0085   0.99  632.0
2019/03/26 14:36:01.000   47.377204370    8.547022746   518.1552   1   7   0.0115   0.0057   0.0176  -0.0046  -0.0063   0.0085   0.99  642.6
2019/03/26 14:36:02.000   47.377204392    8.547022777   518.1612   1   7   0.0115   0.0057   0.0176  -0.0046  -0.0063   0.0085   0.99  652.9
2019/03/26 14:36:03.000   47.377204432    8.547022745   518.1569   1   7   0.0115   0.0057   0.0176  -0.0046  -0.0063   0.0085   0.99  665.1
2019/03/26 14:36:04.000   47.377204397    8.547022751   518.1593   1   7   0.0115   0.0057   0.0176  -0.0046  -0.0063   0.0085   0.99  677.2
2019/03/26 14:36:05.000   47.377204366    8.547022762   518.1583   1   7   0.0115   0.0057   0.0176  -0.0046  -0.0063   0.0085   0.99  689.5
2019/03/26 14:36:06.000   47.377204378    8.547022769   518.1564   1   7   0.0115   0.0057   0.0176  -0.0046  -0.0063   0.0085   0.99  697.2
2019/03/26 14:36:07.000   47.377204357    8.547022787   518.1556   1   7   0.0115   0.0057   0.0176  -0.0046  -0.0063   0.0085   0.99  708.0
2019/03/26 14:36:08.000   47.377204395    8.547022768   518.1628   1   7   0.0115   0.0057   0.0176  -0.0046  -0.0063   0.0085   0.99  717.1
2019/03/26 14:36:09.000   47.377204357    8.547022766   518.1565   1   7   0.0115   0.0057   0.0176  -0.0046  -0.0063   0.0085   0.99  723.2
2019/03/26 14:36:10.000   47.377204344    8.547022788   518.1540   1   7   0.0115   0.0057   0.0176  -0.0046  -0.0063   0.0085   0.99  733.5
2019/03/26 14:36:11.000   47.377204333    8.547022791   518.1588   1   7   0.0115   0.0057   0.0176  -0.0046  -0.0063   0.0085   0.99  741.5
2019/03/26 14:36:12.000   47.377204357    8.547022781   518.1558   1   7   0.0115   0.0057   0.0176  -0.0046  -0.0063   0.0085   0.99  746.5
2019/03/26 14:36:13.000   47.377204385    8.547022757   518.1555   1   7   0.0115   0.0057   0.0176  -0.0046  -0.0063   0.0085   0.99  762.3
2019/03/26 14:36:14.000   47.377204386    8.547022788   518.1528   1   7   0.0115   0.0057   0.0176  -0.0046  -0.0063   0.0085   0.99  768.9
2019/03/26 14:36:15.000   47.377204371    8.547022806   518.1562   1   7   0.0115   0.0057   0.0175  -0.0046  -0.0063   0.0085   0.99  773.2
2019/03/26 14:36:16.000   47.377204335    8.547022795   518.1515   1   7   0.0115   0.0057   0.0175  -0.0046  -0.0063   0.0085   0.99  781.2
2019/03/26 14:36:17.000   47.377204346    8.547022788   518.1541   1   7   0.0115   0.0057   0.0175  -0.0046  -0.0063   0.0085   0.99  793.9
2019/03/26 14:36:18.000   47.377204384    8.547022792   518.1530   1   7   0.0115   0.0057   0.0175  -0.0046  -0.0063   0.0085   0.99  810.2
2019/03/26 14:36:19.000   47.377204374    8.547022796   518.1549   1   7   0.0115   0.0057   0.0175  -0.0046  -0.0063   0.0085   0.99  816.4
2019/03/26 14:36:20.000   47.377204391    8.547022795   518.1541   1   7   0.0115   0.0057   0.0175  -0.0046  -0.0063   0.0085   0.99  832.4
2019/03/26 14:36:21.000   47.377204399    8.547022786   518.1547   1   7   0.0115   0.0057   0.0175  -0.0046  -0.0063   0.0085   0.99  842.0
2019/03/26 14:36:22.000   47.377204332    8.547022802   518.1507   1   7   0.0115   0.0057   0.0175  -0.0046  -0.0063   0.0085   0.99  855.6
2019/03/26 14:36:23.000   47.377204368    8.547022792   518.1550   1   7   0.0115   0.0057   0.0175  -0.0046  -0.0063   0.0085   0.99  868.0
2019/03/26 14:36:24.000   47.377204342    8.547022786   518.1512   1   7   0.0115   0.0057   0.0175  -0.0046  -0.0063   0.0085   0.99  884.4
2019/03/26 14:36:25.000   47.377204386    8.547022800   518.1612   1   7   0.0115   0.0057   0.0175  -0.0046  -0.0063   0.0085   0.99  904.3
2019/03/26 14:36:26.000   47.377204377    8.547022776   518.1552   1   7   0.0115   0.0057   0.0175  -0.0046  -0.0063   0.0085   0.99  919.8
2019/03/26 14:36:27.000   47.377204384    8.547022784   518.1558   1   7   0.0115   0.0057   0.0175  -0.0046  -0.0063   0.0085   0.99  932.4
2019/03/26 14:36:28.000   47.377204359    8.547022772   518.1508   1   7   0.0115   0.0057   0.0175  -0.0046  -0.0063   0.0085   0.99  945.9
2019/03/26 14:36:29.000   47.377204418    8.547022755   518.1593   1   7   0.0115   0.0057   0.0175  -0.0046  -0.0063   0.0085   0.99  965.5
2019/03/26 14:36:30.000   47.377204393    8.547022776   518.1574   1   7   0.0115   0.0057   0.0175  -0.0046  -0.0063   0.0085   0.99  975.3
2019/03/26 14:36:31.000   47.377204396    8.547022743   518.1533   1   7   0.0115   0.0057   0.0175  -0.0046  -0.0063   0.0085   0.99  999.4
2019/03/26 14:36:32.000   47.377204447    8.547022763   518.1588   1   7   0.0115   0.0057   0.0175  -0.0046  -0.0063   0.0085   0.99  999.9
2019/03/26 14:36:33.000   47.377204368    8.547022758   518.1531   1   7   0.0115   0.0057   0.0175  -0.0046  -0.0063   0.0085   0.99  999.9
2019/03/26 14:36:34.000   47.377204365    8.547022800   518.1575   1   7   0.0115   0.0057   0.0175  -0.0046  -0.0063   0.0085   0.99  999.9
2019/03/26 14:36:35.000   47.377204379    8.547022793   518.1494   1   7   0.0115   0.0057   0.0175  -0.0046  -0.0063   0.0085   0.99  999.9
2019/03/26 14:36:36.000   47.377204416    8.547022780   518.1628   1   7   0.0115   0.0057   0.0175  -0.0046  -0.0063   0.0085   0.99  999.9
2019/03/26 14:36:37.000   47.377204346    8.547022780   518.1570   1   7   0.0115   0.0057   0.0175  -0.0046  -0.0063   0.0085   0.99  999.9
2019/03/26 14:36:38.000   47.377204361    8.547022809   518.1510   1   7   0.0115   0.0057   0.0175  -0.0046  -0.0063   0.0085   0.99  999.9
2019/03/26 14:36:39.000   47.377204375    8.547022829   518.1543   1   7   0.0115   0.0057   0.0175  -0.0046  -0.0063   0.0085   0.99  999.9
2019/03/26 14:36:40.000   47.377204342    8.547022812   518.1546   1   7   0.0115   0.0057   0.0175  -0.0046  -0.0063   0.0085   0.99  999.9
2019/03/26 14:36:41.000   47.377204356    8.547022830   518.1546   1   7   0.0115   0.0057   0.0175  -0.0046  -0.0063   0.0085   0.99  999.9
2019/03/26 14:36:42.000   47.377204374    8.547022816   518.1500   1   7   0.0115   0.0057   0.0175  -0.0046  -0.0063   0.0085   0.99  999.9
2019/03/26 14:36:43.000   47.377204378    8.547022809   518.1614   1   7   0.0115   0.0057   0.0175  -0.0046  -0.0063   0.0085   0.99  999.9
2019/03/26 14:36:44.000   47.377204406    8.547022843   518.1659   1   7   0.0115   0.0057   0.0175  -0.0046  -0.0063   0.0085   0.99  999.9
2019/03/26 14:36:45.000   47.377204363    8.547022829   518.1523   1   7   0.0115   0.0057   0.0175  -0.0046  -0.0063   0.0085   0.99  999.9
2019/03/26 14:36:46.000   47.377204337    8.547022854   518.1514   1   7   0.0115   0.0057   0.0175  -0.0046  -0.0063   0.0085   0.99  999.9
2019/03/26 14:36:47.000   47.377204352    8.547022874   518.1520   1   7   0.0115   0.0057   0.0175  -0.0046  -0.0063   0.0085   0.99  999.9
2019/03/26 14:36:48.000   47.377204349    8.547022870   518.1544   1   7   0.0115   0.0057   0.0175  -0.0046  -0.0063   0.0085   0.99  999.9
2019/03/26 14:36:49.000   47.377204369    8.547022851   518.1477   1   7   0.0115   0.0057   0.0175  -0.0047  -0.0063   0.0085   0.99  999.9
2019/03/26 14:36:50.000   47.377204354    8.547022889   518.1451   1   7   0.0115   0.0057   0.0175  -0.0047  -0.0063   0.0085   0.99  999.9
2019/03/26 14:36:51.000   47.377204377    8.547022884   518.1489   1   7   0.0115   0.0057   0.0175  -0.0047  -0.0063   0.0085   0.99  999.9
2019/03/26 14:36:52.000   47.377204348    8.547022863   518.1512   1   7   0.0115   0.0057   0.0175  -0.0047  -0.0063   0.0085   0.99  999.9
2019/03/26 14:36:53.000   47.377204364    8.547022870   518.1459   1   7   0.0115   0.0057   0.0175  -0.0047  -0.0063   0.0085   0.99  999.9
2019/03/26 14:36:54.000   47.377204361    8.547022880   518.1573   1   7   0.0115   0.0057   0.0175  -0.0047  -0.0063   0.0085   0.99  999.9
2019/03/26 14:36:55.000   47.377204352    8.547022870   518.1568   1   7   0.0115   0.0057   0.0175  -0.0047  -0.0063   0.0085   0.99  999.9
2019/03/26 14:36:56.000   47.377204374    8.547022865   518.1621   1   7   0.0115   0.0057   0.0175  -0.0047  -0.0063   0.0085   0.99  999.9
2019/03/26 14:36:57.000   47.377204357    8.547022865   518.1618   1   7   0.0115   0.0057   0.0175  -0.0047  -0.0063   0.0085   0.99  999.9
2019/03/26 14:36:58.000   47.377204366    8.547022857   518.1585   1   7   0.0115   0.0057   0.0175  -0.0047  -0.0063   0.0085   0.99  999.9
2019/03/26 14:36:59.000   47.377204369    8.547022875   518.1540   1   7   0.0115   0.0057   0.0175  -0.0047  -0.0063   0.0085   0.99  999.9
2019/03/26 14:37:00.000   47.377204361    8.547022837   518.1540   1   7   0.0115   0.0057   0.0175  -0.0047  -0.0063   0.0085   0.99  999.9
2019/03/26 14:37:01.000   47.377204376    8.547022874   518.1604   1   7   0.0115   0.0057   0.0175  -0.0047  -0.0063   0.0085   0.99  999.9
2019/03/26 14:37:02.000   47.377204358    8.547022862   518.1571   1   7   0.0115   0.0057   0.0175  -0.0047  -0.0063   0.0085   0.99  999.9
2019/03/26 14:37:03.000   47.377204365    8.547022859   518.1561   1   7   0.0115   0.0057   0.0175  -0.0047  -0.0063   0.0085   0.99  999.9
2019/03/26 14:37:04.000   47.377204342    8.547022858   518.1580   1   7   0.0115   0.0057   0.0175  -0.0047  -0.0063   0.0085   0.99  999.9
2019/03/26 14:37:05.000   47.377204396    8.547022818   518.1629   1   7   0.0115   0.0057   0.0175  -0.0047  -0.0063   0.0085   0.99  999.9
2019/03/26 14:37:06.000   47.377204370    8.547022848   518.1582   1   7   0.0115   0.0057   0.0175  -0.0047  -0.0063   0.0085   0.99  999.9
2019/03/26 14:37:07.000   47.377204401    8.547022834   518.1614   1   7   0.0115   0.0057   0.0175  -0.0047  -0.0063   0.0085   0.99  999.9
2019/03/26 14:37:08.000   47.377204370    8.547022841   518.1576   1   7   0.0115   0.0057   0.0175  -0.0047  -0.0063   0.0085   0.99  999.9
2019/03/26 14:37:09.000   47.377204441    8.547022826   518.1558   1   7   0.0115   0.0057   0.0175  -0.0047  -0.0063   0.0085   0.99  999.9
2019/03/26 14:37:10.000   47.377204349    8.547022860   518.1472   1   7   0.0115   0.0057   0.0175  -0.0047  -0.0063   0.0085   0.99  999.9
2019/03/26 14:37:11.000   47.377204402    8.547022809   518.1585   1   7   0.0115   0.0057   0.0175  -0.0047  -0.0063   0.0085   0.99  999.9
2019/03/26 14:37:12.000   47.377204398    8.547022818   518.1515   1   7   0.0115   0.0057   0.0175  -0.0047  -0.0063   0.0085   0.99  999.9
2019/03/26 14:37:13.000   47.377204421    8.547022819   518.1560   1   7   0.0115   0.0057   0.0175  -0.0047  -0.0063   0.0085   0.99  999.9
2019/03/26 14:37:14.000   47.377204360    8.547022822   518.1567   1   7   0.0115   0.0057   0.0175  -0.0047  -0.0063   0.0085   0.99  999.9
2019/03/26 14:37:15.000   47.377204390    8.547022803   518.1545   1   7   0.0115   0.0057   0.0175  -0.0047  -0.0063   0.0085   0.99  999.9
2019/03/26 14:37:16.000   47.377204398    8.547022809   518.1514   1   7   0.0115   0.0057   0.0175  -0.0047  -0.0063   0.0085   0.99  999.9
2019/03/26 14:37:17.000   47.377204505    8.547022813   518.1482   1   7   0.0115   0.0057   0.0175  -0.0047  -0.0063   0.0085   0.99  999.9
2019/03/26 14:37:18.000   47.377204517    8.547022765   518.1628   1   7   0.0115   0.0057   0.0175  -0.0047  -0.0063   0.0085   0.99  999.9
